[
  {
    "ID": 1,
    "name": "VRIC",
    "fullName": "Valley Ranch Islamic Center",
    "FajrAdhan": "06:14 AM",
    "FajrIqamah": "06:30 AM",
    "DhurAdhan": "12:41 PM",
    "DhurIqamah": "01:00 PM",
    "AsrAdhan": "03:38 PM",
    "AsrIqamah": "04:00 PM",
    "MaghribAdhan": "05:59 PM",
    "MaghribIqamah": "06:05 PM",
    "IshaAdhan": "07:09 PM",
    "IshaIqamah": "07:45 PM",
    "masjidPic": "",
    "URL": "https://vric.org/",
    "latitude": 32.917265,
    "longitude": -96.948097
  },
  {
    "ID": 2,
    "name": "ICI",
    "fullName": "Islamic Center of Irving",
    "FajrAdhan": "6:13 am",
    "FajrIqamah": "6:30 am",
    "DhurAdhan": "12:47 pm",
    "DhurIqamah": "1:15 pm",
    "AsrAdhan": "3:39 pm",
    "AsrIqamah": "4:00 pm",
    "MaghribAdhan": "6:03 pm",
    "MaghribIqamah": "6:08 pm",
    "IshaAdhan": "7:11 pm",
    "IshaIqamah": "7:45 pm",
    "masjidPic": "",
    "URL": "https://irvingmasjid.org/",
    "latitude": 32.843514,
    "longitude": -97.010609
  },
  {
    "ID": 3,
    "name": "EPIC",
    "fullName": "East Plano Islamic Center",
    "FajrAdhan": "06:12 AM",
    "FajrIqamah": "06:30 AM",
    "DhurAdhan": "12:41 PM",
    "DhurIqamah": "02:00 PM",
    "AsrAdhan": "03:38 PM",
    "AsrIqamah": "04:00 PM",
    "MaghribAdhan": "05:59 PM",
    "MaghribIqamah": "06:04 PM",
    "IshaAdhan": "07:09 PM",
    "IshaIqamah": "08:00 PM",
    "masjidPic": "",
    "URL": "https://epicmasjid.org/",
    "latitude": 33.010194,
    "longitude": -96.646658
  },
  {
    "ID": 4,
    "name": "ICF",
    "fullName": "Islamic Center of Frisco",
    "FajrAdhan": "05:58 AM",
    "FajrIqamah": "06:30 AM",
    "DhurAdhan": "12:45 PM",
    "DhurIqamah": "02:00 PM",
    "AsrAdhan": "03:37 PM",
    "AsrIqamah": "04:15 PM",
    "MaghribAdhan": "06:01 PM",
    "MaghribIqamah": "06:06 PM",
    "IshaAdhan": "07:22 PM",
    "IshaIqamah": "07:45 PM",
    "masjidPic": "",
    "URL": "https://friscomasjid.org/",
    "latitude": 33.172561,
    "longitude": -96.834773
  },
  {
    "ID": 5,
    "name": "IACC",
    "fullName": "Islamic Association of Collin County",
    "FajrAdhan": "N/A",
    "FajrIqamah": "6:30 AM",
    "DhurAdhan": "N/A",
    "DhurIqamah": "2:00 PM",
    "AsrAdhan": "N/A",
    "AsrIqamah": "4:15 PM",
    "MaghribAdhan": "N/A",
    "MaghribIqamah": "6:06 PM",
    "IshaAdhan": "N/A",
    "IshaIqamah": "7:45 PM",
    "masjidPic": "",
    "URL": "https://planomasjid.org/",
    "latitude": 33.059832,
    "longitude": -96.751554
  },
  {
    "ID": 6,
    "name": "IANT",
    "fullName": "Islamic Association of North Texas",
    "FajrAdhan": "6:13 AM",
    "FajrIqamah": "6:30 AM",
    "DhurAdhan": "12:41 PM",
    "DhurIqamah": "1:45 PM",
    "AsrAdhan": "3:38 PM",
    "AsrIqamah": "4:00 PM",
    "MaghribAdhan": "5:59 PM",
    "MaghribIqamah": "6:09 PM",
    "IshaAdhan": "7:10 PM",
    "IshaIqamah": "8:00 PM",
    "masjidPic": "",
    "URL": "https://iant.com/",
    "latitude": 32.939422,
    "longitude": -96.730911
  },
  {
    "ID": 7,
    "name": "IDEA",
    "fullName": "Makkah Masjid",
    "FajrAdhan": "N/A",
    "FajrIqamah": "6:30am",
    "DhurAdhan": "N/A",
    "DhurIqamah": "2:00 pm",
    "AsrAdhan": "N/A",
    "AsrIqamah": "4:30pm",
    "MaghribAdhan": "N/A",
    "MaghribIqamah": "Sunset",
    "IshaAdhan": "N/A",
    "IshaIqamah": "8:00pm",
    "masjidPic": "",
    "URL": "http://www.makkahmasjid.net/",
    "latitude": 32.931817,
    "longitude": -96.679314
  },
  {
    "ID": 8,
    "name": "IAA",
    "fullName": "Islamic Association of Allen",
    "FajrAdhan": "5:58 AM",
    "FajrIqamah": "6:30 AM",
    "DhurAdhan": "12:45 AM",
    "DhurIqamah": "2:00 AM",
    "AsrAdhan": "3:37 AM",
    "AsrIqamah": "4:15 AM",
    "MaghribAdhan": "6:01 AM",
    "MaghribIqamah": "6:06 AM",
    "IshaAdhan": "7:22 AM",
    "IshaIqamah": "7:45 AM",
    "masjidPic": "",
    "URL": "https://allenmasjid.com/",
    "latitude": 33.09719,
    "longitude": -96.683529
  },
  {
    "ID": 9,
    "name": "MIA",
    "fullName": "McKinney Islamic Association",
    "FajrAdhan": "7:23 AM",
    "FajrIqamah": "Zuhr",
    "DhurAdhan": "1:45 PM",
    "DhurIqamah": "Asr",
    "AsrAdhan": "4:15 PM",
    "AsrIqamah": "Maghrib",
    "MaghribAdhan": "6:07 PM",
    "MaghribIqamah": "Isha",
    "IshaAdhan": "8:00 PM",
    "IshaIqamah": "Jumuah",
    "masjidPic": "",
    "URL": "https://www.mckinneymasjid.org/",
    "latitude": 33.169022,
    "longitude": -96.663064
  },
  {
    "ID": 10,
    "name": "MIC",
    "fullName": "Mesquite Islamic Center",
    "FajrAdhan": "N/A",
    "FajrIqamah": "6:15 am",
    "DhurAdhan": "N/A",
    "DhurIqamah": "1:15 pm",
    "AsrAdhan": "N/A",
    "AsrIqamah": "4:15 pm",
    "MaghribAdhan": "N/A",
    "MaghribIqamah": "10 minutes after Athan",
    "IshaAdhan": "N/A",
    "IshaIqamah": "8:00 pm",
    "masjidPic": "",
    "URL": "https://www.micmasjid.com/",
    "latitude": 32.796484,
    "longitude": -96.617984
  },
  {
    "ID": 11,
    "name": "IALFM",
    "fullName": "Islamic Association of Lewisville & Flower Mound",
    "FajrAdhan": "06:14 AM",
    "FajrIqamah": "06:30 AM",
    "DhurAdhan": "12:42 PM",
    "DhurIqamah": "01:00 PM",
    "AsrAdhan": "03:38 PM",
    "AsrIqamah": "04:15 PM",
    "MaghribAdhan": "05:59 PM",
    "MaghribIqamah": "06:04 PM",
    "IshaAdhan": "07:10 PM",
    "IshaIqamah": "08:00 PM",
    "masjidPic": "",
    "URL": "https://www.ialfm.org/",
    "latitude": 33.034412,
    "longitude": -97.083097
  },
  {
    "ID": 12,
    "name": "MY",
    "fullName": "Masjid Yaseen",
    "FajrAdhan": "6:15 AM.",
    "FajrIqamah": "6:30 AM.",
    "DhurAdhan": "1:30 PM.",
    "DhurIqamah": "1:45 PM.",
    "AsrAdhan": "4:15 PM.",
    "AsrIqamah": "4:30 PM.",
    "MaghribAdhan": "Sunset",
    "MaghribIqamah": "Sunset",
    "IshaAdhan": "7:15 PM.",
    "IshaIqamah": "7:30 PM.",
    "masjidPic": "",
    "URL": "http://masjidyaseen.org/",
    "latitude": 32.983145,
    "longitude": -96.650791
  },
  {
    "ID": 13,
    "name": "ICC",
    "fullName": "Islamic Center of Coppell",
    "FajrAdhan": "06:13 AM",
    "FajrIqamah": "06:30 AM",
    "DhurAdhan": "12:41 PM",
    "DhurIqamah": "02:00 PM",
    "AsrAdhan": "03:37 PM",
    "AsrIqamah": "04:30 PM",
    "MaghribAdhan": "05:59 PM",
    "MaghribIqamah": "06:04 PM",
    "IshaAdhan": "07:09 PM",
    "IshaIqamah": "07:45 PM",
    "masjidPic": "",
    "URL": "https://iccmasjid.org/",
    "latitude": 32.96996,
    "longitude": -96.975986
  }
]